City,ID,Lat,Long,Max Temp,Humidity,Cloudiness,Wind,Country,Date
yellowknife,6185377,62.456,-114.3525,67.96,43,5,12.17,CA,Sat Jun 26 21:11:20 2021
atuona,4020109,-9.8,-139.0333,78.94,66,6,21.25,PF,Sat Jun 26 21:11:20 2021
san quintin,3984997,30.4833,-115.95,64.2,84,0,11.56,MX,Sat Jun 26 21:11:20 2021
hasaki,2112802,35.7333,140.8333,79.18,81,100,8.34,JP,Sat Jun 26 21:11:21 2021
port alfred,964432,-33.5906,26.891,53.4,79,61,6.78,ZA,Sat Jun 26 21:11:21 2021
bazarnyy syzgan,578465,53.7512,46.7535,72.82,78,72,1.92,RU,Sat Jun 26 21:11:21 2021
barcelos,2742416,41.5388,-8.6151,60.91,97,38,2.39,PT,Sat Jun 26 21:11:22 2021
sambava,1056899,-14.2667,50.1667,69.44,83,12,8.88,MG,Sat Jun 26 21:11:22 2021
faanui,4034551,-16.4833,-151.75,81.55,74,3,9.1,PF,Sat Jun 26 21:11:23 2021
chokurdakh,2126123,70.6333,147.9167,79.9,33,45,13.65,RU,Sat Jun 26 21:11:23 2021
mataura,6201424,-46.1927,168.8643,54.48,87,71,5.79,NZ,Sat Jun 26 21:11:23 2021
georgetown,1735106,5.4112,100.3354,88.9,67,20,1.99,MY,Sat Jun 26 21:11:24 2021
hirara,1862505,24.8,125.2833,83.25,86,100,18.54,JP,Sat Jun 26 21:11:24 2021
dikson,1507390,73.5069,80.5464,34.45,77,53,4.23,RU,Sat Jun 26 21:11:24 2021
rikitea,4030556,-23.1203,-134.9692,74.44,75,1,9.86,PF,Sat Jun 26 21:11:25 2021
bluff,2206939,-46.6,168.3333,54.81,81,72,19.64,NZ,Sat Jun 26 21:11:25 2021
saint-joseph,6690296,-21.3667,55.6167,70.47,76,1,3.87,RE,Sat Jun 26 21:11:25 2021
lamballe,3008225,48.4676,-2.5144,57.31,97,63,1.7,FR,Sat Jun 26 21:11:26 2021
hobart,2163355,-42.8794,147.3294,55.92,62,75,3,AU,Sat Jun 26 21:07:53 2021
hilo,5855927,19.7297,-155.09,81.28,77,20,8.05,US,Sat Jun 26 21:08:56 2021
husavik,2629833,66.0449,-17.3389,55.31,64,67,6.4,IS,Sat Jun 26 21:11:26 2021
albany,5106841,42.6001,-73.9662,76.95,84,85,6.85,US,Sat Jun 26 21:10:29 2021
avarua,4035715,-21.2078,-159.775,73.2,71,100,25.26,CK,Sat Jun 26 21:11:27 2021
punta arenas,3874787,-53.15,-70.9167,37.51,70,90,10.36,CL,Sat Jun 26 21:11:27 2021
east london,1006984,-33.0153,27.9116,55.4,60,63,4.61,ZA,Sat Jun 26 21:11:28 2021
bonavista,5905393,48.6499,-53.1147,56.16,82,93,14.85,CA,Sat Jun 26 21:11:28 2021
balikpapan,1650527,-1.2675,116.8289,83.39,79,40,8.05,ID,Sat Jun 26 21:11:29 2021
butaritari,2110227,3.0707,172.7902,83.37,74,100,12.62,KI,Sat Jun 26 21:11:29 2021
hofn,2630299,64.2539,-15.2082,50.7,66,100,1.66,IS,Sat Jun 26 21:11:29 2021
abu samrah,172515,35.3029,37.1841,77.13,49,0,6.98,SY,Sat Jun 26 21:11:30 2021
mikkeli,646005,61.6886,27.2723,66.15,100,90,4.61,FI,Sat Jun 26 21:11:30 2021
severo-kurilsk,2121385,50.6789,156.125,47.32,86,83,16.93,RU,Sat Jun 26 21:11:30 2021
cidreira,3466165,-30.1811,-50.2056,62.47,99,100,4,BR,Sat Jun 26 21:11:31 2021
ushuaia,3833367,-54.8,-68.3,37.06,81,90,9.22,AR,Sat Jun 26 21:11:31 2021
san patricio,4726521,28.017,-97.5169,84.09,75,1,13.76,US,Sat Jun 26 21:11:31 2021
jamestown,5122534,42.097,-79.2353,76.71,72,1,5.99,US,Sat Jun 26 21:11:32 2021
khatanga,2022572,71.9667,102.5,55.17,39,99,11.65,RU,Sat Jun 26 21:11:32 2021
severodvinsk,496285,64.5635,39.8302,53.71,73,25,5.93,RU,Sat Jun 26 21:11:33 2021
hermanus,3366880,-34.4187,19.2345,52.68,75,39,9.24,ZA,Sat Jun 26 21:11:33 2021
kaitangata,2208248,-46.2817,169.8464,55.92,60,78,6.08,NZ,Sat Jun 26 21:11:33 2021
salalah,286621,17.0151,54.0924,82.49,83,75,4.61,OM,Sat Jun 26 21:11:34 2021
torbay,6167817,47.6666,-52.7314,60.49,78,87,10.78,CA,Sat Jun 26 21:09:28 2021
qaanaaq,3831208,77.484,-69.3632,36.52,85,73,2.75,GL,Sat Jun 26 21:11:34 2021
awjilah,88533,29.1081,21.2869,82.62,35,0,7.87,LY,Sat Jun 26 21:11:34 2021
hithadhoo,1282256,-0.6,73.0833,82.54,71,50,7.81,MV,Sat Jun 26 21:11:35 2021
ancud,3899695,-41.8697,-73.8203,39.22,88,46,5.12,CL,Sat Jun 26 21:11:35 2021
warmbad,3352263,-28.45,18.7333,47.48,62,4,9.69,NA,Sat Jun 26 21:11:36 2021
sol-iletsk,491019,51.1631,54.9918,83.52,51,4,6.71,RU,Sat Jun 26 21:11:36 2021
bathsheba,3374083,13.2167,-59.5167,81.21,61,20,17.27,BB,Sat Jun 26 21:11:37 2021
hami,1529484,42.8,93.45,84.97,18,76,7.63,CN,Sat Jun 26 21:11:37 2021
barrow,5880054,71.2906,-156.7887,48.22,73,1,13.8,US,Sat Jun 26 21:11:37 2021
kapaa,5848280,22.0752,-159.319,82.72,74,40,1.99,US,Sat Jun 26 21:11:38 2021
sahuaripa,3988265,29.05,-109.2333,91.18,26,0,2.24,MX,Sat Jun 26 21:11:38 2021
busselton,2075265,-33.65,115.3333,57.04,81,100,23.85,AU,Sat Jun 26 21:11:38 2021
shimoda,1852357,34.6667,138.95,73.11,93,100,10.51,JP,Sat Jun 26 21:11:39 2021
cabo san lucas,3985710,22.8909,-109.9124,87.8,71,31,1.99,MX,Sat Jun 26 21:08:30 2021
victoria,1819729,22.2855,114.1577,89.58,88,83,5.99,HK,Sat Jun 26 21:07:12 2021
bojnurd,140380,37.4747,57.329,76.59,17,0,5.35,IR,Sat Jun 26 21:11:39 2021
saskylakh,2017155,71.9167,114.0833,53.26,41,98,3.94,RU,Sat Jun 26 21:11:40 2021
ormara,1168700,25.2088,64.6357,83.34,75,18,10.42,PK,Sat Jun 26 21:11:40 2021
barinas,3648546,8.6226,-70.2075,72.07,93,95,3.33,VE,Sat Jun 26 21:11:41 2021
victor harbor,2059470,-35.5667,138.6167,61.47,83,50,1.01,AU,Sat Jun 26 21:11:41 2021
lengshuijiang,1804169,27.6881,111.4294,90.55,64,93,5.28,CN,Sat Jun 26 21:11:41 2021
mar del plata,3430863,-38.0023,-57.5575,50.13,78,90,18.01,AR,Sat Jun 26 21:11:42 2021
challakere,1274862,14.3167,76.65,77.79,63,100,17.02,IN,Sat Jun 26 21:11:42 2021
saint george,5546220,37.1041,-113.5841,93.79,15,1,13.8,US,Sat Jun 26 21:11:42 2021
ribeira grande,3372707,38.5167,-28.7,68.09,79,25,11.1,PT,Sat Jun 26 21:11:43 2021
buraydah,107304,26.326,43.975,90.52,10,0,11.21,SA,Sat Jun 26 21:11:43 2021
along,1278969,28.1667,94.7667,80.35,92,100,2.89,IN,Sat Jun 26 21:11:44 2021
cape town,3369157,-33.9258,18.4232,56.88,65,62,3,ZA,Sat Jun 26 21:07:11 2021
seoul,1835848,37.5683,126.9778,84.61,39,45,1.03,KR,Sat Jun 26 21:10:18 2021
sao filipe,3374210,14.8961,-24.4956,74.88,87,59,6.53,CV,Sat Jun 26 21:11:44 2021
bethel,5282297,41.3712,-73.414,74.71,89,1,5.75,US,Sat Jun 26 21:11:45 2021
vaini,4032243,-21.2,-175.2,73.56,73,40,12.66,TO,Sat Jun 26 21:11:45 2021
touros,3386213,-5.1989,-35.4608,72.5,77,77,13.6,BR,Sat Jun 26 21:10:26 2021
nuevo laredo,3522551,27.4763,-99.5164,86.83,62,1,20.71,MX,Sat Jun 26 21:11:46 2021
oxchuc,3522256,16.85,-92.4167,56.55,99,100,2.48,MX,Sat Jun 26 21:11:46 2021
shubarshi,608270,48.5872,57.1869,84.92,39,5,12.15,KZ,Sat Jun 26 21:11:47 2021
vila velha,3445026,-20.3297,-40.2925,64.35,100,0,1.14,BR,Sat Jun 26 21:11:47 2021
lavrentiya,4031637,65.5833,-171,46.63,86,72,5.64,RU,Sat Jun 26 21:11:47 2021
ilulissat,3423146,69.2167,-51.1,44.62,76,40,3.44,GL,Sat Jun 26 21:11:48 2021
new norfolk,2155415,-42.7826,147.0587,55.58,47,66,7.74,AU,Sat Jun 26 21:11:48 2021
bredasdorp,1015776,-34.5322,20.0403,46.98,79,44,5.7,ZA,Sat Jun 26 21:11:48 2021
puerto narino,3671387,-3.7703,-70.3831,75.15,89,31,0.89,CO,Sat Jun 26 21:11:49 2021
certaldo,3179024,43.547,11.0402,67.64,67,7,1.52,IT,Sat Jun 26 21:11:49 2021
kushalnagar,1265451,12.458,75.959,71.47,77,99,7.56,IN,Sat Jun 26 21:11:50 2021
changtu,2038139,42.7788,124.0955,65.43,96,100,10.51,CN,Sat Jun 26 21:11:50 2021
lebu,3883457,-37.6167,-73.65,42.31,79,1,11.61,CL,Sat Jun 26 21:11:50 2021
port elizabeth,964420,-33.918,25.5701,51.08,80,43,6.24,ZA,Sat Jun 26 21:11:51 2021
antofagasta,3899539,-23.65,-70.4,58.28,79,100,6.51,CL,Sat Jun 26 21:08:15 2021
leningradskiy,2123814,69.3833,178.4167,58.89,38,94,3.71,RU,Sat Jun 26 21:11:51 2021
port macquarie,2152659,-31.4333,152.9167,64.89,52,0,4.68,AU,Sat Jun 26 21:11:52 2021
ponta do sol,2264557,32.6667,-17.1,66.83,73,20,3.4,PT,Sat Jun 26 21:11:52 2021
norman wells,6089245,65.282,-126.8329,78.66,36,95,11.95,CA,Sat Jun 26 21:11:52 2021
sao felix do xingu,3388847,-6.6447,-51.995,73.98,67,57,0.98,BR,Sat Jun 26 21:11:53 2021
ishigaki,1861416,24.3448,124.1572,83.7,82,100,13.06,JP,Sat Jun 26 21:11:53 2021
kloulklubed,7671223,7.0419,134.2556,83.98,68,48,6.04,PW,Sat Jun 26 21:11:53 2021
bosobolo,2316473,4.1833,19.9,68.27,93,70,1.1,CD,Sat Jun 26 21:11:54 2021
nuuk,3421319,64.1835,-51.7216,56.01,71,75,25.32,GL,Sat Jun 26 21:11:54 2021
thompson,6165406,55.7435,-97.8558,59.25,53,37,6.51,CA,Sat Jun 26 21:11:55 2021
bengkulu,1649150,-3.8004,102.2655,83.53,67,22,4.68,ID,Sat Jun 26 21:11:55 2021
puerto ayora,3652764,-0.7393,-90.3518,72.55,91,8,4,EC,Sat Jun 26 21:11:55 2021
pevek,2122090,69.7008,170.3133,38.66,71,99,4.43,RU,Sat Jun 26 21:11:56 2021
buarcos,2741961,40.166,-8.8768,61.66,95,37,9.48,PT,Sat Jun 26 21:11:56 2021
lingao,1803560,19.9103,109.6859,93.88,52,96,11.81,CN,Sat Jun 26 21:11:56 2021
narsaq,3421719,60.9167,-46.05,53.82,89,99,0.31,GL,Sat Jun 26 21:11:57 2021
heihe,2036973,50.2441,127.4902,84.78,46,70,9.53,CN,Sat Jun 26 21:11:57 2021
codrington,2171099,-38.2667,141.9667,56.84,67,43,6.49,AU,Sat Jun 26 21:11:57 2021
arlit,2447513,18.7369,7.3853,88.47,9,3,12.19,NE,Sat Jun 26 21:11:58 2021
talnakh,1490256,69.4865,88.3972,58.26,50,44,4.16,RU,Sat Jun 26 21:11:58 2021
olafsvik,3414079,64.8945,-23.7142,48.13,93,55,8.86,IS,Sat Jun 26 21:11:59 2021
flinders,6255012,-34.5833,150.8552,67.37,47,0,1.28,AU,Sat Jun 26 21:11:59 2021
sakakah,102527,29.9697,40.2064,84.83,28,0,5.01,SA,Sat Jun 26 21:11:59 2021
guerrero negro,4021858,27.9769,-114.0611,64.45,87,22,15.61,MX,Sat Jun 26 21:12:00 2021
stokmarknes,3136690,68.5646,14.9108,53.49,92,100,18.28,NO,Sat Jun 26 21:12:00 2021
candelaria,1719274,13.9311,121.4233,87.39,49,39,6.31,PH,Sat Jun 26 21:12:00 2021
cayenne,3382160,4.9333,-52.3333,78.1,86,8,2.3,GF,Sat Jun 26 21:12:01 2021
skibotn,7626405,69.3913,20.2679,48.47,73,31,3.67,NO,Sat Jun 26 21:12:01 2021
castro,3466704,-24.7911,-50.0119,58.06,73,25,5.23,BR,Sat Jun 26 21:12:01 2021
viedma,3832899,-40.8135,-62.9967,46.18,64,100,16.75,AR,Sat Jun 26 21:12:02 2021
mound,5038348,44.9366,-93.6661,69.71,95,100,1.01,US,Sat Jun 26 21:07:54 2021
dingle,1714733,10.9995,122.6711,87.26,64,100,5.06,PH,Sat Jun 26 21:12:02 2021
luderitz,3355672,-26.6481,15.1594,56.3,50,3,4.5,NA,Sat Jun 26 21:12:03 2021
kainantu,2095038,-6.2887,145.8655,75.25,55,79,5.55,PG,Sat Jun 26 21:12:03 2021
mackenzie,6063191,55.2999,-123.1698,78.4,54,9,2.77,CA,Sat Jun 26 21:12:03 2021
calabozo,3647444,8.9242,-67.4293,74.77,86,40,5.03,VE,Sat Jun 26 21:12:04 2021
pangkalanbuun,1632694,-2.6833,111.6167,91.4,48,39,4.61,ID,Sat Jun 26 21:12:04 2021
santa cruz,3904906,-17.8,-63.1667,63.57,77,58,15.52,BO,Sat Jun 26 21:12:05 2021
tasiilaq,3424607,65.6145,-37.6368,53.76,64,31,7.81,GL,Sat Jun 26 21:12:05 2021
the valley,3573374,18.217,-63.0578,81.1,76,100,18.12,AI,Sat Jun 26 21:11:53 2021
yumen,1528998,40.2833,97.2,79.63,21,100,7.05,CN,Sat Jun 26 21:12:05 2021
lorengau,2092164,-2.0226,147.2712,84.09,72,29,5.91,PG,Sat Jun 26 21:12:06 2021
christchurch,2192362,-43.5333,172.6333,57,86,92,1.99,NZ,Sat Jun 26 21:12:06 2021
greenville,4469160,35.6127,-77.3663,75.29,92,1,0,US,Sat Jun 26 21:12:07 2021
beyneu,610298,45.3167,55.2,93.29,24,0,8.28,KZ,Sat Jun 26 21:12:07 2021
hovd,1516048,48.0056,91.6419,67.33,23,60,3.29,MN,Sat Jun 26 21:12:07 2021
iskitim,1505429,54.6366,83.3045,67.82,74,49,10.16,RU,Sat Jun 26 21:12:08 2021
bambous virieux,1106677,-20.3428,57.7575,72.21,80,2,10.11,MU,Sat Jun 26 21:12:08 2021
mehamn,778707,71.0357,27.8492,47.08,88,98,4.59,NO,Sat Jun 26 21:12:08 2021
ust-kuyga,2013921,70.0167,135.6,67.05,47,100,10.85,RU,Sat Jun 26 21:12:09 2021
cockburn town,3576994,21.4612,-71.1419,80.53,77,0,15.17,TC,Sat Jun 26 21:12:09 2021
platanos,255030,37.6667,21.6167,78.57,37,19,4.54,GR,Sat Jun 26 21:12:09 2021
rock sound,3571592,24.9,-76.2,81.05,72,4,16.71,BS,Sat Jun 26 21:09:30 2021
juybar,129933,36.6412,52.9124,92.95,25,0,4.21,IR,Sat Jun 26 21:12:10 2021
yar-sale,1486321,66.8333,70.8333,54.37,45,100,5.79,RU,Sat Jun 26 21:12:10 2021
arraial do cabo,3471451,-22.9661,-42.0278,70.75,78,92,23.47,BR,Sat Jun 26 21:12:11 2021
kodiak,5866583,57.79,-152.4072,54.91,71,20,6.91,US,Sat Jun 26 21:12:11 2021
muisne,3653967,0.6,-80.0333,75.94,86,100,8.05,EC,Sat Jun 26 21:12:11 2021
grand gaube,934479,-20.0064,57.6608,72.37,88,1,5.01,MU,Sat Jun 26 21:12:12 2021
imbituba,3461370,-28.24,-48.6703,66.81,84,100,12.1,BR,Sat Jun 26 21:08:49 2021
padang,1633419,-0.9492,100.3543,86.05,65,51,3.69,ID,Sat Jun 26 21:12:13 2021
tautira,4033557,-17.7333,-149.15,80.62,71,0,6.46,PF,Sat Jun 26 21:12:13 2021
kismayo,55671,-0.3582,42.5454,77.32,79,52,14.47,SO,Sat Jun 26 21:10:13 2021
port blair,1259385,11.6667,92.75,84.56,67,100,9.15,IN,Sat Jun 26 21:12:13 2021
havre-saint-pierre,5972291,50.2334,-63.5986,58.14,95,100,4.76,CA,Sat Jun 26 21:12:14 2021
komsomolskiy,1513491,40.4272,71.7189,83.12,21,1,4.61,UZ,Sat Jun 26 21:12:14 2021
vila do maio,3374120,15.1333,-23.2167,75.99,89,70,10.51,CV,Sat Jun 26 21:12:14 2021
labuhan,8079926,-6.8844,112.2051,85.89,67,41,8.03,ID,Sat Jun 26 21:12:15 2021
karaton,1630058,-6.3424,106.1045,86.16,58,95,0.69,ID,Sat Jun 26 21:12:15 2021
garden city,4993659,42.3256,-83.331,80.85,70,75,20.71,US,Sat Jun 26 21:10:33 2021
iquitos,3696183,-3.7481,-73.2472,75.24,94,20,4.61,PE,Sat Jun 26 21:10:41 2021
shumikha,1491999,55.2261,63.2961,70.21,74,8,11.88,RU,Sat Jun 26 21:12:16 2021
bilibino,2126682,68.0546,166.4372,75.16,29,100,4.12,RU,Sat Jun 26 21:12:16 2021
nantucket,4944903,41.2835,-70.0995,74.08,100,90,11.5,US,Sat Jun 26 21:10:35 2021
point pleasant,5102796,40.0832,-74.0682,76.21,86,1,3,US,Sat Jun 26 21:11:17 2021
rajula,1258795,21.05,71.4333,88.86,51,36,9.71,IN,Sat Jun 26 21:12:17 2021
lowestoft,2643490,52.4752,1.7516,60.46,95,96,14.05,GB,Sat Jun 26 21:12:18 2021
longyearbyen,2729907,78.2186,15.6401,46.24,66,40,5.75,SJ,Sat Jun 26 21:12:18 2021
souillac,933995,-20.5167,57.5167,72.36,84,2,9.46,MU,Sat Jun 26 21:12:18 2021
matara,1235846,5.9485,80.5353,80.22,83,96,13.11,LK,Sat Jun 26 21:12:19 2021
asau,686090,46.4333,26.4,67.28,93,7,3.02,RO,Sat Jun 26 21:12:19 2021
sao jose da coroa grande,3388456,-8.8978,-35.1478,73.29,84,65,8.52,BR,Sat Jun 26 21:12:20 2021
krapivinskiy,1502192,54.9992,86.8133,60.44,89,100,7.65,RU,Sat Jun 26 21:12:20 2021
mujiayingzi,2035707,42.1167,118.7833,79.63,42,4,4.56,CN,Sat Jun 26 21:12:20 2021
roma,5134295,43.2128,-75.4557,80.46,70,1,4.61,US,Sat Jun 26 21:12:21 2021
sioux lookout,6148373,50.1001,-91.917,61.68,76,88,4.05,CA,Sat Jun 26 21:12:21 2021
alice springs,2077895,-23.7,133.8833,54.95,47,1,14.97,AU,Sat Jun 26 21:12:22 2021
elista,563514,46.3078,44.2558,75.72,73,99,6.71,RU,Sat Jun 26 21:12:22 2021
prince rupert,6113406,54.3161,-130.3201,65.7,86,29,3.6,CA,Sat Jun 26 21:12:22 2021
anaconda,5637146,46.1285,-112.9423,70.79,66,1,2.04,US,Sat Jun 26 21:12:23 2021
katangli,2122783,51.7102,143.2326,54.1,81,79,12.19,RU,Sat Jun 26 21:12:23 2021
luanda,2240449,-8.8368,13.2343,73.4,88,75,3.44,AO,Sat Jun 26 21:10:46 2021
quelimane,1028434,-17.8786,36.8883,62.37,94,1,4.68,MZ,Sat Jun 26 21:12:24 2021
nikolskoye,546105,59.7035,30.7861,71.02,74,44,2.51,RU,Sat Jun 26 21:12:24 2021
america dourada,3472344,-11.4553,-41.4361,62.83,88,22,10,BR,Sat Jun 26 21:12:24 2021
vilaka,454130,57.1846,27.6722,64.51,80,82,3.44,LV,Sat Jun 26 21:12:25 2021
esperance,2071860,-33.8667,121.9,62.58,44,1,22.77,AU,Sat Jun 26 21:12:25 2021
homer,5864145,59.6425,-151.5483,59.07,62,90,5.75,US,Sat Jun 26 21:08:05 2021
ati,2436400,13.2154,18.3353,87.64,44,37,11.92,TD,Sat Jun 26 21:12:26 2021
gamba,2400547,-2.65,10,71.31,94,76,3.02,GA,Sat Jun 26 21:12:26 2021
boa vista,3664980,2.8197,-60.6733,78.78,89,20,3.44,BR,Sat Jun 26 21:12:26 2021
farah,1142263,32.5,62.5,82.96,10,0,3.02,AF,Sat Jun 26 21:12:27 2021
leshukonskoye,535839,64.8989,45.7622,56.26,69,26,6.2,RU,Sat Jun 26 21:12:27 2021
ambilobe,1082243,-13.2,49.05,66.81,84,18,3.36,MG,Sat Jun 26 21:12:27 2021
jaroslaw,770380,50.0162,22.6778,60.8,94,0,5.88,PL,Sat Jun 26 21:12:28 2021
yerbogachen,2012956,61.2767,108.0108,71.53,40,50,8.9,RU,Sat Jun 26 21:12:28 2021
grindavik,3416888,63.8424,-22.4338,48.67,93,90,11.5,IS,Sat Jun 26 21:12:29 2021
hamilton,4513583,39.1834,-84.5333,78.91,74,40,9.22,US,Sat Jun 26 21:10:24 2021
jiuquan,1279945,39.7432,98.5174,84.04,27,99,16.13,CN,Sat Jun 26 21:12:29 2021
tolaga bay,2180991,-38.3667,178.3,61.66,82,98,10.78,NZ,Sat Jun 26 21:12:29 2021
provideniya,4031574,64.3833,-173.3,51.89,73,93,5.48,RU,Sat Jun 26 21:12:30 2021
sheridan,5838199,44.8333,-106.9173,64.69,57,90,8.05,US,Sat Jun 26 21:12:30 2021
san ignacio,3581194,17.1561,-89.0714,78.94,89,75,0,BZ,Sat Jun 26 21:12:31 2021
necochea,3430443,-38.5473,-58.7368,45.03,81,97,9.69,AR,Sat Jun 26 21:12:31 2021
camacha,2270385,33.0833,-16.3333,63.82,63,75,8.05,PT,Sat Jun 26 21:12:32 2021
saint-philippe,935215,-21.3585,55.7679,71.47,76,2,6.15,RE,Sat Jun 26 21:12:32 2021
vestmannaeyjar,3412093,63.4427,-20.2734,48.22,95,63,5.64,IS,Sat Jun 26 21:12:32 2021
sinjar,448149,36.3209,41.8754,91.31,16,4,5.73,IQ,Sat Jun 26 21:12:33 2021
tarakan,1624725,3.3,117.6333,83.7,70,75,5.75,ID,Sat Jun 26 21:12:33 2021
maldonado,3441890,-34.6667,-54.9167,51.19,94,99,15.7,UY,Sat Jun 26 21:12:33 2021
tuktoyaktuk,6170031,69.4541,-133.0374,51.39,62,83,7.99,CA,Sat Jun 26 21:12:34 2021
qaqortoq,3420846,60.7167,-46.0333,54.1,93,100,2.06,GL,Sat Jun 26 21:12:34 2021
carnarvon,2074865,-24.8667,113.6333,75.27,53,75,17.27,AU,Sat Jun 26 21:12:34 2021
berdigestyakh,2026861,62.0989,126.6992,82.76,29,91,3.89,RU,Sat Jun 26 21:12:35 2021
nome,5870133,64.5011,-165.4064,60.17,58,20,13.8,US,Sat Jun 26 21:12:35 2021
san policarpo,1688696,12.1791,125.5072,86.16,68,99,9.1,PH,Sat Jun 26 21:12:35 2021
kurilsk,2123979,45.2333,147.8833,56.93,81,100,2.15,RU,Sat Jun 26 21:12:16 2021
vanimo,2084442,-2.6741,141.3028,83.41,73,53,7.14,PG,Sat Jun 26 21:12:36 2021
grants,5469841,35.1473,-107.8514,64.63,29,1,0,US,Sat Jun 26 21:12:37 2021
ostrovnoy,556268,68.0531,39.5131,49.48,66,92,3.6,RU,Sat Jun 26 21:12:37 2021
sabinas hidalgo,3988327,26.5,-100.1667,82.04,59,9,14.7,MX,Sat Jun 26 21:12:38 2021
traralgon,2146108,-38.1833,146.5333,59.41,91,99,4.12,AU,Sat Jun 26 21:12:38 2021
sarrebourg,2975967,48.7333,7.05,62.31,91,100,6.15,FR,Sat Jun 26 21:12:38 2021
dano,2361586,11.15,-3.0667,75.31,71,35,7.38,BF,Sat Jun 26 21:12:39 2021
borzya,2026126,50.3833,116.5167,82.22,38,71,5.53,RU,Sat Jun 26 21:12:39 2021
lazaro cardenas,4026082,17.9583,-102.2,70.75,95,100,12.66,MX,Sat Jun 26 21:12:39 2021
berkovica,3199779,44.6156,18.4294,63.12,85,9,2.48,BA,Sat Jun 26 21:12:40 2021
san cristobal,3628473,7.7669,-72.225,68.18,97,77,1.5,VE,Sat Jun 26 21:12:40 2021
khovu-aksy,1503527,51.1333,93.6,54.5,74,100,5.26,RU,Sat Jun 26 21:12:40 2021
nanortalik,3421765,60.1432,-45.2371,47.44,87,94,4.85,GL,Sat Jun 26 21:12:41 2021
brae,2654970,60.3964,-1.353,51.71,95,84,14.29,GB,Sat Jun 26 21:12:41 2021
yenotayevka,467479,47.2456,47.0281,84.47,41,76,12.95,RU,Sat Jun 26 21:12:42 2021
pacific grove,5380437,36.6177,-121.9166,69.76,89,90,4,US,Sat Jun 26 21:12:42 2021
fortuna,5563839,40.5982,-124.1573,58.32,72,90,1.99,US,Sat Jun 26 21:12:42 2021
quatre cocos,1106643,-20.2078,57.7625,72.09,81,3,9.53,MU,Sat Jun 26 21:12:43 2021
tual,1623197,-5.6667,132.75,80.76,77,67,19.46,ID,Sat Jun 26 21:12:43 2021
karratha,6620339,-20.7377,116.8463,69.96,57,97,6.2,AU,Sat Jun 26 21:12:44 2021
makakilo city,5850554,21.3469,-158.0858,79.29,62,1,6.91,US,Sat Jun 26 21:12:44 2021
moscow,524901,55.7522,37.6156,77.52,57,13,3.56,RU,Sat Jun 26 21:12:44 2021
kastamonu,743881,41.5,33.6667,61.88,84,0,2.89,TR,Sat Jun 26 21:12:45 2021
navalgund,1261667,15.5667,75.3667,71.87,85,100,11.61,IN,Sat Jun 26 21:12:45 2021
airai,1651810,-8.9266,125.4092,73.2,55,70,5.32,TL,Sat Jun 26 21:12:46 2021
rocha,3440777,-34.4833,-54.3333,54.03,96,100,14.14,UY,Sat Jun 26 21:12:46 2021
dhidhdhoo,1337612,6.8833,73.1,81.73,77,75,12.24,MV,Sat Jun 26 21:12:46 2021
puerto escondido,3520994,15.85,-97.0667,80.08,65,100,11.99,MX,Sat Jun 26 21:12:47 2021
constitucion,3893726,-35.3333,-72.4167,41.94,80,0,6.71,CL,Sat Jun 26 21:12:47 2021
klaksvik,2618795,62.2266,-6.589,49.12,87,89,6.11,FO,Sat Jun 26 21:12:47 2021
awbari,2219235,26.5921,12.7805,82.8,18,0,8.57,LY,Sat Jun 26 21:12:48 2021
newark,5101798,40.7357,-74.1724,77.34,83,75,13.8,US,Sat Jun 26 21:12:02 2021
temeni,253003,38.2333,22.1167,79.57,45,28,6.93,GR,Sat Jun 26 21:12:48 2021
sorland,3137469,67.667,12.6934,50.74,88,96,24.25,NO,Sat Jun 26 21:12:49 2021
palmer,4946620,42.1584,-72.3287,75.13,76,90,3,US,Sat Jun 26 21:12:49 2021
sault sainte marie,6141439,46.5168,-84.3333,68.29,93,90,0,CA,Sat Jun 26 21:08:46 2021
champerico,3598787,14.3,-91.9167,81.36,80,100,6.53,GT,Sat Jun 26 21:12:50 2021
yulara,6355222,-25.2406,130.9889,57.04,44,7,14.97,AU,Sat Jun 26 21:12:50 2021
tromso,6453316,69.6496,18.957,48.85,81,75,2.3,NO,Sat Jun 26 21:12:50 2021
lasa,3175096,46.6166,10.7002,57.61,88,55,1.43,IT,Sat Jun 26 21:12:51 2021
balabac,1728675,7.9868,117.0645,86.94,65,50,10.58,PH,Sat Jun 26 21:12:51 2021
porto novo,2392087,6.4965,2.6036,72.09,94,95,3.67,BJ,Sat Jun 26 21:12:52 2021
norrtalje,2688250,59.758,18.705,63.28,69,3,1.79,SE,Sat Jun 26 21:11:51 2021
lompoc,5367788,34.6391,-120.4579,71.1,79,90,6.91,US,Sat Jun 26 21:12:37 2021
kribi,2229761,2.95,9.9167,76.44,89,100,5.64,CM,Sat Jun 26 21:12:52 2021
alofi,4036284,-19.0595,-169.9187,75.16,71,14,27.54,NU,Sat Jun 26 21:12:53 2021
katsuura,2112309,35.1333,140.3,79.23,94,100,9.15,JP,Sat Jun 26 21:09:13 2021
yarmouth,4956335,41.7057,-70.2286,74.08,96,90,8.01,US,Sat Jun 26 21:12:53 2021
kahului,5847411,20.8947,-156.47,84.22,65,75,12.66,US,Sat Jun 26 21:12:54 2021
pavlodar,1520240,52.3,76.95,69.6,46,0,11.18,KZ,Sat Jun 26 21:12:54 2021
morondava,1058381,-20.2833,44.2833,63.9,58,0,6.98,MG,Sat Jun 26 21:12:54 2021
rantepao,1629974,-2.9701,119.8978,71.29,95,99,1.45,ID,Sat Jun 26 21:12:55 2021
novyy urgal,2047258,51.0736,132.5642,79.29,56,75,1.79,RU,Sat Jun 26 21:12:55 2021
hit,95788,33.6416,42.8251,94.14,14,0,6.76,IQ,Sat Jun 26 21:12:55 2021
bam,141736,29.106,58.357,91.08,11,0,6.64,IR,Sat Jun 26 21:12:56 2021
acajutla,3587498,13.5928,-89.8275,80.8,82,94,2.75,SV,Sat Jun 26 21:12:56 2021
road town,3577430,18.4167,-64.6167,80.69,78,100,19.86,VG,Sat Jun 26 21:12:57 2021
kavaratti,1267390,10.5669,72.642,82.02,77,99,16.6,IN,Sat Jun 26 21:12:57 2021
tahoua,2439376,14.8888,5.2692,87.19,40,9,8.57,NE,Sat Jun 26 21:12:57 2021
tilichiki,2120591,60.4667,166.1,53.42,75,76,9.37,RU,Sat Jun 26 21:12:58 2021
bahia blanca,3865086,-38.7196,-62.2724,43.21,82,100,13.96,AR,Sat Jun 26 21:08:21 2021
mizan teferi,330534,6.9833,35.5833,61.57,81,94,3.22,ET,Sat Jun 26 21:12:58 2021
atasu,1526041,48.6814,71.6433,70.32,28,78,10,KZ,Sat Jun 26 21:12:59 2021
richmond heights,5168063,41.5528,-81.5101,79.57,64,1,14.97,US,Sat Jun 26 21:12:59 2021
ordu,741098,40.9086,37.6845,63.1,79,0,3.2,TR,Sat Jun 26 21:12:59 2021
guangshui,1809879,31.6199,113.9978,77.56,94,100,3.18,CN,Sat Jun 26 21:13:00 2021
skawina,3085807,49.9752,19.8287,63.37,91,40,1.14,PL,Sat Jun 26 21:13:00 2021
mindelo,3374462,16.8901,-24.9804,74.75,78,75,18.41,CV,Sat Jun 26 21:13:00 2021
ituporanga,3460514,-27.4144,-49.6025,63.01,99,99,0.4,BR,Sat Jun 26 21:13:01 2021
ugoofaaru,1337619,5.6667,73,81.91,75,90,10.85,MV,Sat Jun 26 21:13:01 2021
moose factory,6078372,51.2585,-80.6094,45.63,75,100,6.67,CA,Sat Jun 26 21:13:02 2021
seymchan,2121373,62.8833,152.4333,80.8,25,76,5.3,RU,Sat Jun 26 21:13:02 2021
pudozh,504269,61.8099,36.5345,65.12,93,79,1.16,RU,Sat Jun 26 21:13:02 2021
nokaneng,933211,-19.6667,22.2667,52.59,39,5,4.54,BW,Sat Jun 26 21:13:03 2021
meulaboh,1214488,4.1363,96.1285,81.05,77,51,5.3,ID,Sat Jun 26 21:13:03 2021
vao,2137773,-22.6667,167.4833,73.09,72,91,10.29,NC,Sat Jun 26 21:13:04 2021
auki,2109701,-8.7676,160.7034,83.12,73,100,5.32,SB,Sat Jun 26 21:13:04 2021
kamaishi,2112444,39.2667,141.8833,74.68,70,74,6.46,JP,Sat Jun 26 21:13:04 2021
altay,1529651,47.8667,88.1167,59.14,60,100,10.67,CN,Sat Jun 26 21:13:05 2021
aklavik,5882953,68.2191,-135.0107,70.48,43,100,11.39,CA,Sat Jun 26 21:13:05 2021
estacion coahuila,3979494,32.1939,-115.0017,99.97,24,0,14,MX,Sat Jun 26 21:13:05 2021
frontera,3980180,26.9333,-101.45,86.32,48,6,14.03,MX,Sat Jun 26 21:13:06 2021
pisco,3932145,-13.7,-76.2167,60.85,88,81,10.36,PE,Sat Jun 26 21:13:06 2021
cherskiy,2126199,68.75,161.3,73.98,35,100,4.61,RU,Sat Jun 26 21:13:06 2021
batan,3624730,10.0844,-83.341,73.62,94,100,3,CR,Sat Jun 26 21:13:07 2021
karlshamn,2701727,56.1706,14.8619,57.9,88,25,6.55,SE,Sat Jun 26 21:13:07 2021
raudeberg,3146487,61.9875,5.1352,53.2,82,39,14.32,NO,Sat Jun 26 21:13:08 2021
tiksi,2015306,71.6872,128.8694,36.12,85,100,7.63,RU,Sat Jun 26 21:13:08 2021
mahuta,878121,-10.8667,39.45,58.59,97,0,0.34,TZ,Sat Jun 26 21:13:08 2021
saint-augustin,6137462,51.226,-58.6502,55.72,97,100,9.44,CA,Sat Jun 26 21:13:09 2021
tondano,1623424,1.3038,124.9112,75.29,70,100,2.42,ID,Sat Jun 26 21:13:09 2021
fort dodge,4857486,42.4975,-94.168,68.13,94,40,4.61,US,Sat Jun 26 21:04:49 2021
yanam,1252795,16.7333,82.2167,86.4,51,81,4.68,IN,Sat Jun 26 21:13:10 2021
drezdenko,3100127,52.8383,15.8308,60.26,76,69,1.72,PL,Sat Jun 26 21:13:10 2021
kieta,2094027,-6.2167,155.6333,82.26,79,100,4.54,PG,Sat Jun 26 21:13:10 2021
chicama,3698359,-7.8447,-79.1469,63.18,87,81,5.79,PE,Sat Jun 26 21:13:11 2021
mount gambier,2156643,-37.8333,140.7667,57.47,67,33,2.89,AU,Sat Jun 26 21:12:04 2021
lesnoy,6853140,57.6198,63.0784,64.45,81,97,9.64,RU,Sat Jun 26 21:13:11 2021
chuy,3443061,-33.6971,-53.4616,56.05,94,100,10.6,UY,Sat Jun 26 21:13:12 2021
wanxian,1791748,30.8039,108.3897,86.9,80,100,3.78,CN,Sat Jun 26 21:13:12 2021
pouebo,2138607,-20.4,164.5667,77.13,63,98,8.88,NC,Sat Jun 26 21:13:12 2021
billings,5640350,45.7833,-108.5007,76.51,45,75,0,US,Sat Jun 26 21:13:13 2021
duku,2344415,11.2361,4.9073,72.64,91,72,6.51,NG,Sat Jun 26 21:13:13 2021
adrar,2381972,20.5022,-10.0711,87.21,17,2,9.42,MR,Sat Jun 26 21:13:13 2021
kuhdasht,126409,33.535,47.6061,74.71,11,27,3.78,IR,Sat Jun 26 21:13:14 2021
muncar,1634718,-8.4333,114.3333,84.51,73,47,5.19,ID,Sat Jun 26 21:13:14 2021
acapulco,3533462,16.8634,-99.8901,72.88,92,100,7.34,MX,Sat Jun 26 21:13:15 2021
mandalgovi,2030065,45.7625,106.2708,86.88,14,39,17.92,MN,Sat Jun 26 21:13:15 2021
las vegas,5506956,36.175,-115.1372,101.08,14,1,0,US,Sat Jun 26 21:10:51 2021
geraldton,2070998,-28.7667,114.6,57.61,77,90,14.97,AU,Sat Jun 26 21:13:15 2021
omboue,2396853,-1.5746,9.2618,72.16,93,73,5.77,GA,Sat Jun 26 21:13:16 2021
arrifes,3373329,37.7667,-25.7,64.65,94,20,5.75,PT,Sat Jun 26 21:13:16 2021
shenkursk,494884,62.1091,42.896,70.88,58,89,5.21,RU,Sat Jun 26 21:13:17 2021
bayshore gardens,4146934,27.4253,-82.5904,80.98,88,1,6.91,US,Sat Jun 26 21:13:17 2021
raduzhnyy,1540356,62.0961,77.475,59.83,41,48,7.83,RU,Sat Jun 26 21:13:17 2021
biltine,244878,14.5333,20.9167,87.19,18,54,7.11,TD,Sat Jun 26 21:13:18 2021
isangel,2136825,-19.55,169.2667,76.44,65,29,13,VU,Sat Jun 26 21:13:18 2021
maragogi,3395458,-9.0122,-35.2225,72.72,86,71,7.7,BR,Sat Jun 26 21:13:18 2021
sistranda,3139597,63.7256,8.834,53.91,88,78,22.08,NO,Sat Jun 26 21:10:53 2021
chumikan,2025256,54.7183,135.315,53.31,77,100,9.69,RU,Sat Jun 26 21:12:14 2021
ponerihouen,2138687,-21.0833,165.4,76.08,62,99,7.43,NC,Sat Jun 26 21:13:19 2021
taltal,3870243,-25.4,-70.4833,60.37,66,100,4.36,CL,Sat Jun 26 21:13:19 2021
ballina,2177069,-28.8667,153.5667,66.38,62,15,7.52,AU,Sat Jun 26 21:13:20 2021
pacasmayo,3694178,-7.4006,-79.5714,64,87,62,9.78,PE,Sat Jun 26 21:13:20 2021
staryy nadym,1490918,65.6118,72.6842,55.2,45,86,1.12,RU,Sat Jun 26 21:13:20 2021
dunedin,2191562,-45.8742,170.5036,53.8,64,74,1.01,NZ,Sat Jun 26 21:13:21 2021
tirodi,1254400,21.6833,79.7,90.84,52,45,5.28,IN,Sat Jun 26 21:13:21 2021
mangan,1263776,27.5167,88.5333,80.58,86,95,2.3,IN,Sat Jun 26 21:13:22 2021
zhezkazgan,1516589,47.8043,67.7144,77.22,26,65,19.06,KZ,Sat Jun 26 21:13:22 2021
zhigalovo,2012532,54.8097,105.1578,56.75,92,100,0.94,RU,Sat Jun 26 21:12:10 2021
rio gallegos,3838859,-51.6226,-69.2181,34.72,61,100,10.45,AR,Sat Jun 26 21:10:54 2021
meadow lake,5478673,34.8014,-106.5436,76.6,40,82,6.6,US,Sat Jun 26 21:13:23 2021
west wendover,5710035,40.7391,-114.0733,79.81,19,1,10.36,US,Sat Jun 26 21:13:23 2021
koumac,2140558,-20.5667,164.2833,76.84,64,99,6.71,NC,Sat Jun 26 21:13:23 2021
tena,3650721,-0.9833,-77.8167,66.7,98,15,3.47,EC,Sat Jun 26 21:13:24 2021
kalmunai,1242110,7.4167,81.8167,85.77,60,99,2.26,LK,Sat Jun 26 21:13:24 2021
dhaka,1185241,23.7104,90.4074,89.58,66,40,11.5,BD,Sat Jun 26 21:09:08 2021
kununurra,2068110,-15.7667,128.7333,76.98,27,80,10.36,AU,Sat Jun 26 21:12:12 2021
archidona,2521673,37.0965,-4.3887,66.92,56,1,1.72,ES,Sat Jun 26 21:13:25 2021
berlevag,780687,70.8578,29.0864,46.8,89,99,4.18,NO,Sat Jun 26 21:13:25 2021
vardo,777019,70.3705,31.1107,46.58,91,100,2.1,NO,Sat Jun 26 21:13:25 2021
yangjiang,1806408,21.85,111.9667,87.94,67,89,12.01,CN,Sat Jun 26 21:13:26 2021
marawi,1701054,7.9986,124.2928,81.64,66,92,2.17,PH,Sat Jun 26 21:13:26 2021
daru,2098329,-9.0763,143.2092,79.07,87,98,15.99,PG,Sat Jun 26 21:13:27 2021
namibe,3347019,-15.1961,12.1522,68.92,56,8,7.72,AO,Sat Jun 26 21:13:27 2021
amga,2027786,60.8953,131.9608,82.38,28,100,8.12,RU,Sat Jun 26 21:13:27 2021
orhangazi,741045,40.4892,29.3089,74.91,68,0,2.42,TR,Sat Jun 26 21:13:28 2021
semey,1519422,50.4111,80.2275,68.22,49,0,11.18,KZ,Sat Jun 26 21:13:28 2021
muyezerskiy,524100,63.9333,31.65,58.98,71,9,5.48,RU,Sat Jun 26 21:13:28 2021
burnie,2173125,-41.0667,145.9167,58.91,61,25,10.11,AU,Sat Jun 26 21:13:29 2021
mahebourg,934322,-20.4081,57.7,72.25,80,2,10.51,MU,Sat Jun 26 21:13:29 2021
los llanos de aridane,2514651,28.6585,-17.9182,65.95,84,90,13.8,ES,Sat Jun 26 21:13:30 2021
haysville,4272788,37.5645,-97.3523,75.6,82,1,3.44,US,Sat Jun 26 21:13:30 2021
paamiut,3421193,61.994,-49.6678,44.22,98,100,19.08,GL,Sat Jun 26 21:13:30 2021
mount isa,2065594,-20.7333,139.5,67.77,37,76,9.22,AU,Sat Jun 26 21:13:31 2021
astoria,5711847,46.1879,-123.8313,81.09,73,1,3.44,US,Sat Jun 26 21:13:31 2021
dombarovskiy,565407,50.7587,59.5386,80.35,50,2,9.48,RU,Sat Jun 26 21:13:31 2021
puerto madryn,3840092,-42.7692,-65.0385,42.66,79,97,22.17,AR,Sat Jun 26 21:11:59 2021
pingliang,1798760,35.5392,106.6861,83.16,40,28,8.86,CN,Sat Jun 26 21:13:32 2021
port hardy,6111862,50.6996,-127.4199,66.94,82,12,8.63,CA,Sat Jun 26 21:13:32 2021
humaita,3664078,-7.5061,-63.0208,72.77,90,27,2.55,BR,Sat Jun 26 21:13:33 2021
labuan,1733782,5.2767,115.2417,87.96,76,45,4.12,MY,Sat Jun 26 21:09:18 2021
taguatinga,6319623,-12.3857,-46.5711,64.44,37,0,4.79,BR,Sat Jun 26 21:13:33 2021
senanga,898947,-16.1167,23.2667,50.61,54,3,4.18,ZM,Sat Jun 26 21:13:34 2021
sechura,3691954,-5.5569,-80.8222,67.12,77,13,12.68,PE,Sat Jun 26 21:13:34 2021
hereford,2647074,52.0568,-2.7148,59.02,88,80,8.12,GB,Sat Jun 26 21:13:34 2021
ust-maya,2013918,60.4167,134.5333,82.51,32,100,4.03,RU,Sat Jun 26 21:13:35 2021
manono,209598,-7.3,27.4167,64.9,43,5,2.84,CD,Sat Jun 26 21:13:35 2021
upernavik,3418910,72.7868,-56.1549,37.04,98,100,5.88,GL,Sat Jun 26 21:13:36 2021
cutervo,3699087,-6.379,-78.8157,48.07,91,21,2.15,PE,Sat Jun 26 21:13:36 2021
miura,1907309,35.14,139.6192,80.37,87,100,0.78,JP,Sat Jun 26 21:13:36 2021
olga,2018553,43.7444,135.2892,68.72,66,53,5.41,RU,Sat Jun 26 21:13:37 2021
vrangel,2013258,42.7297,133.0839,65.35,82,93,6.38,RU,Sat Jun 26 21:13:37 2021
beloha,1067565,-25.1667,45.05,60.55,82,0,4.61,MG,Sat Jun 26 21:13:37 2021
comodoro rivadavia,3860443,-45.8667,-67.5,39.87,59,12,5.5,AR,Sat Jun 26 21:10:01 2021
portland,5746545,45.5234,-122.6762,96.78,45,20,1.01,US,Sat Jun 26 21:08:47 2021
pedasi,3703239,7.5333,-80.0333,70.45,82,66,1.86,PA,Sat Jun 26 21:13:38 2021
shanghai,1796236,31.2222,121.4581,82.26,81,75,11.18,CN,Sat Jun 26 21:11:01 2021
palana,2122262,59.1167,159.9667,48.38,77,94,4.12,RU,Sat Jun 26 21:13:39 2021
kincardine,2645525,56.0667,-3.7167,55.38,88,100,1.34,GB,Sat Jun 26 21:13:39 2021
simoes,3387625,-7.5989,-40.8178,68.43,56,4,13.85,BR,Sat Jun 26 21:13:39 2021
ayagoz,1525988,47.9714,80.4392,63.12,46,2,5.75,KZ,Sat Jun 26 21:13:40 2021
santa rosa,1687894,14.3122,121.1114,92.08,61,35,2.77,PH,Sat Jun 26 21:13:40 2021
mahajanga,1062663,-15.7167,46.3167,64.42,88,0,5.75,MG,Sat Jun 26 21:13:40 2021
mehran,124291,33.1222,46.1646,92.68,6,0,3.13,IR,Sat Jun 26 21:13:41 2021
speedway,4265146,39.8023,-86.2672,79,74,1,8.05,US,Sat Jun 26 21:13:41 2021
wanaka,2184707,-44.7,169.15,49.1,98,91,1.99,NZ,Sat Jun 26 21:13:42 2021
mamallapuram,1263997,12.6264,80.1722,86.05,57,100,7.18,IN,Sat Jun 26 21:13:42 2021
bairiki,7601762,1.3292,172.9752,87.8,66,40,6.91,KI,Sat Jun 26 21:13:42 2021
gat,293842,31.61,34.7642,81.39,69,0,2.37,IL,Sat Jun 26 21:13:43 2021
avera,4231997,33.194,-82.5271,76.87,82,30,7.09,US,Sat Jun 26 21:13:43 2021
roald,3141667,62.5833,6.1333,54.34,76,90,17.27,NO,Sat Jun 26 21:13:43 2021
djambala,2260401,-2.5447,14.7533,65.66,92,26,4.9,CG,Sat Jun 26 21:13:44 2021
lata,2738381,40.1629,-8.3327,60.04,89,82,4.83,PT,Sat Jun 26 21:13:44 2021
pangnirtung,6096551,66.1451,-65.7125,36.1,99,100,1.05,CA,Sat Jun 26 21:13:44 2021
coahuayana,4013679,18.7333,-103.6833,70.95,95,100,5.75,MX,Sat Jun 26 21:13:45 2021
henderson,5505411,36.0397,-114.9819,101.64,14,1,8.05,US,Sat Jun 26 21:11:13 2021
oranjemund,3354071,-28.55,16.4333,53.91,65,18,4.09,NA,Sat Jun 26 21:13:45 2021
eureka,5563397,40.8021,-124.1637,58.57,78,48,1.99,US,Sat Jun 26 21:09:16 2021
abu kamal,174448,34.4506,40.9171,88.84,27,0,11.12,SY,Sat Jun 26 21:13:46 2021
belmonte,3470137,-15.8631,-38.8828,64.9,63,68,6.98,BR,Sat Jun 26 21:13:46 2021
petropavlovsk-kamchatskiy,2122104,53.0452,158.6483,73.99,27,75,17.9,RU,Sat Jun 26 21:13:47 2021
ugento,2522833,39.9263,18.1574,75.45,68,2,10.6,IT,Sat Jun 26 21:13:47 2021
iquique,3887127,-20.2208,-70.1431,59.04,79,48,3.78,CL,Sat Jun 26 21:13:00 2021
poso,1630723,-1.3959,120.7524,84.99,69,72,4.59,ID,Sat Jun 26 21:13:48 2021
atambua,1651103,-9.1061,124.8925,84.63,55,33,3.6,ID,Sat Jun 26 21:13:48 2021
carutapera,3402648,-1.195,-46.02,74.16,93,25,4.61,BR,Sat Jun 26 21:13:49 2021
puri,1259184,19.8,85.85,87.39,69,49,9.08,IN,Sat Jun 26 21:13:49 2021
boyabat,750468,41.4689,34.7667,68.67,82,0,2.13,TR,Sat Jun 26 21:13:49 2021
kachiry,1523662,53.0675,76.1036,71.33,46,69,14.67,KZ,Sat Jun 26 21:13:50 2021
tessalit,2449893,20.1986,1.0114,91.53,10,1,8.25,ML,Sat Jun 26 21:13:50 2021
saldanha,3361934,-33.0117,17.9442,53.58,84,7,9.62,ZA,Sat Jun 26 21:13:50 2021
te anau,2181625,-45.4167,167.7167,48.49,87,100,6.13,NZ,Sat Jun 26 21:13:51 2021
sioux city,4876523,42.5,-96.4003,66.81,78,21,3.29,US,Sat Jun 26 21:13:51 2021
north bend,5742974,43.4065,-124.2243,65.86,90,90,5.75,US,Sat Jun 26 21:13:51 2021
sitka,5557293,57.0531,-135.33,62.49,77,90,4.61,US,Sat Jun 26 21:13:52 2021
broken hill,2173911,-31.95,141.4333,56.79,46,0,3.33,AU,Sat Jun 26 21:13:52 2021
biograd na moru,3204121,43.9433,15.4519,68.76,61,2,4.27,HR,Sat Jun 26 21:13:53 2021
hobyo,57000,5.3505,48.5268,78.03,81,95,20.98,SO,Sat Jun 26 21:13:53 2021
jacqueville,2287778,5.2052,-4.4146,75.11,88,99,3.13,CI,Sat Jun 26 21:13:53 2021
tevaitoa,4033375,-16.7833,-151.5,80.58,77,7,11.59,PF,Sat Jun 26 21:13:54 2021
coquimbo,3893629,-29.9533,-71.3436,51.53,87,75,4.61,CL,Sat Jun 26 21:13:54 2021
port hedland,2063042,-20.3167,118.5667,73.45,38,90,11.5,AU,Sat Jun 26 21:13:54 2021
dutse,2344245,11.7594,9.3392,78.66,64,99,11.7,NG,Sat Jun 26 21:13:55 2021
tura,1254046,25.5198,90.2201,83.34,74,31,7.31,IN,Sat Jun 26 21:13:55 2021
lebyazhye,1500764,55.2689,66.4947,71.01,73,8,6.15,RU,Sat Jun 26 21:13:56 2021
sri aman,1735799,1.2376,111.4621,85.68,67,96,3.09,MY,Sat Jun 26 21:13:56 2021
polyarnyye zori,506762,67.3661,32.4981,50.9,100,100,3.36,RU,Sat Jun 26 21:13:56 2021
rafai,236524,4.95,23.9167,67.8,90,96,1.63,CF,Sat Jun 26 21:13:57 2021
oktyabrskiy,515879,54.4815,53.471,74.88,76,9,4.21,RU,Sat Jun 26 21:13:57 2021
sardarshahr,1257198,28.4333,74.4833,96.69,33,8,4.56,IN,Sat Jun 26 21:13:57 2021
ulagan,1488048,50.6321,87.9563,54,77,99,0.18,RU,Sat Jun 26 21:13:58 2021
sola,2134814,-13.8833,167.55,80.08,70,83,19.86,VU,Sat Jun 26 21:13:58 2021
minas,3441665,-34.3759,-55.2377,50.47,95,100,16.22,UY,Sat Jun 26 21:13:59 2021
darnah,87205,32.767,22.6367,83.57,41,0,12.01,LY,Sat Jun 26 21:13:59 2021
pangody,1495626,65.85,74.4859,54.82,44,65,5.01,RU,Sat Jun 26 21:13:59 2021
gwanda,890516,-20.9333,29,53.51,39,0,4.05,ZW,Sat Jun 26 21:14:00 2021
san juan,3837213,-31.5375,-68.5364,41.54,44,75,4.12,AR,Sat Jun 26 21:14:00 2021
salto,3440714,-31.3833,-57.9667,48.87,87,100,11.01,UY,Sat Jun 26 21:14:01 2021
baiao,3406844,-2.7906,-49.6717,72.82,91,65,2.57,BR,Sat Jun 26 21:14:01 2021
vaitape,4033077,-16.5167,-151.75,81.54,74,3,9.13,PF,Sat Jun 26 21:14:01 2021
melilla,2513947,35.2937,-2.9383,64.78,77,20,3.44,ES,Sat Jun 26 21:14:02 2021
rundu,3353383,-17.9333,19.7667,49.23,40,20,3.42,NA,Sat Jun 26 21:14:02 2021
praia da vitoria,3372760,38.7333,-27.0667,64.76,90,17,6.62,PT,Sat Jun 26 21:14:03 2021
acarau,3408368,-2.8856,-40.12,75.99,81,3,2.24,BR,Sat Jun 26 21:11:28 2021
lima,3936456,-12.0432,-77.0282,62.91,84,90,9.22,PE,Sat Jun 26 21:12:22 2021
fez,2548885,34.0372,-4.9998,64.65,88,0,3.44,MA,Sat Jun 26 21:09:12 2021
puerto del rosario,2512186,28.5004,-13.8627,69.55,78,10,13.8,ES,Sat Jun 26 21:14:03 2021
marsh harbour,3571913,26.5412,-77.0636,81.14,69,45,17.11,BS,Sat Jun 26 21:14:04 2021
socorro,5530932,31.6546,-106.3033,93.18,16,20,3.44,US,Sat Jun 26 21:14:04 2021
laguna,5364271,38.421,-121.4238,91.24,48,1,4,US,Sat Jun 26 21:14:05 2021
takoradi,2294915,4.8845,-1.7554,75.81,89,100,4.43,GH,Sat Jun 26 21:14:05 2021
kulhudhuffushi,1337613,6.6221,73.07,81.82,75,52,11.56,MV,Sat Jun 26 21:14:06 2021
vostok,2013279,46.4856,135.8833,81.39,35,95,8.5,RU,Sat Jun 26 21:14:06 2021
trelew,3833883,-43.249,-65.3051,42.22,78,73,18.43,AR,Sat Jun 26 21:14:07 2021
klintsy,547475,52.7602,32.2393,67.05,88,99,5.37,RU,Sat Jun 26 21:14:07 2021
nichinan,1855476,31.6,131.3667,69.48,95,100,9.62,JP,Sat Jun 26 21:09:13 2021
ponnani,1259411,10.767,75.9252,83.52,72,89,8.95,IN,Sat Jun 26 21:14:08 2021
anamur,323828,36.0751,32.8369,77.02,50,0,5.86,TR,Sat Jun 26 21:14:08 2021
esmeraldas,3464008,-19.7625,-44.3139,58.06,84,11,4,BR,Sat Jun 26 21:14:08 2021
saint-ambroise,6137381,48.5501,-71.3324,62.58,99,100,3.09,CA,Sat Jun 26 21:14:09 2021
kwinana,2068079,-32.25,115.7667,57.99,69,100,3,AU,Sat Jun 26 21:14:09 2021
ahuimanu,5856516,21.4447,-157.8378,80.46,65,75,6.91,US,Sat Jun 26 21:14:10 2021
mandera,187896,3.9366,41.867,74.25,63,50,10.69,KE,Sat Jun 26 21:14:10 2021
nemuro,2128975,43.3236,145.575,54.97,95,83,9.35,JP,Sat Jun 26 21:14:10 2021
sobolevo,525426,54.4299,31.8996,66.65,88,81,5.21,RU,Sat Jun 26 21:14:11 2021
sretensk,2016110,52.2453,117.7093,85.23,41,99,2.71,RU,Sat Jun 26 21:12:11 2021
sao sebastiao,3448257,-23.76,-45.4097,68.61,84,54,4.63,BR,Sat Jun 26 21:14:11 2021
nampa,5601933,43.5407,-116.5635,87.19,41,1,0,US,Sat Jun 26 21:14:11 2021
levelland,5525042,33.5873,-102.378,65.25,85,72,8.5,US,Sat Jun 26 21:14:12 2021
robertsport,2274275,6.7533,-11.3686,77.07,83,100,1.88,LR,Sat Jun 26 21:14:12 2021
chapais,5919850,49.7834,-74.8492,62.38,99,100,4.05,CA,Sat Jun 26 21:14:13 2021
iwade,1861244,34.25,135.3167,78.03,68,100,3.78,JP,Sat Jun 26 21:14:13 2021
fernie,5952370,49.5,-115.0687,71.8,62,40,5.03,CA,Sat Jun 26 21:14:13 2021
santo antonio da platina,3449529,-23.295,-50.0772,62.6,63,0,1.34,BR,Sat Jun 26 21:14:14 2021
valparaiso,3868626,-33.0393,-71.6273,50.47,71,0,4.61,CL,Sat Jun 26 21:14:14 2021
tochio,1850307,37.4667,139,71.62,85,100,2.17,JP,Sat Jun 26 21:14:14 2021
atar,2381334,20.5169,-13.0499,84.34,34,4,2.17,MR,Sat Jun 26 21:14:15 2021
vangazi,454537,57.0936,24.5486,64.65,96,100,4.12,LV,Sat Jun 26 21:14:15 2021
sangmelima,2222230,2.9333,11.9833,65.55,100,87,2.62,CM,Sat Jun 26 21:14:15 2021
uri,1253694,34.0833,74.0333,80.2,46,80,2.08,IN,Sat Jun 26 21:14:16 2021
batemans bay,2176639,-35.7167,150.1833,63.91,42,6,5.44,AU,Sat Jun 26 21:14:16 2021
rio de janeiro,3451190,-22.9028,-43.2075,70.92,86,0,3.44,BR,Sat Jun 26 21:11:26 2021
olinda,3393536,-8.0089,-34.8553,69.53,78,40,4.61,BR,Sat Jun 26 21:14:17 2021
huarmey,3939168,-10.0681,-78.1522,63.37,85,68,9.04,PE,Sat Jun 26 21:14:17 2021
chumphon,1153555,10.3333,98.8333,82.38,63,92,6.46,TH,Sat Jun 26 21:14:18 2021
yenagoa,2318123,4.9247,6.2642,74.19,93,100,3.65,NG,Sat Jun 26 21:14:18 2021
port lincoln,2063036,-34.7333,135.8667,60.24,74,28,13.29,AU,Sat Jun 26 21:14:18 2021
mumford,2297810,5.2618,-0.759,74.28,92,100,5.97,GH,Sat Jun 26 21:14:19 2021
nabire,1634614,-3.3667,135.4833,85.32,59,30,4.92,ID,Sat Jun 26 21:14:19 2021
devils lake,5058868,48.1128,-98.8651,66.18,82,90,5.75,US,Sat Jun 26 21:14:20 2021
fare,4034496,-16.7,-151.0167,80.06,77,3,9.95,PF,Sat Jun 26 21:14:20 2021
atherton,2656847,53.5237,-2.4935,58.28,89,44,1.99,GB,Sat Jun 26 21:14:20 2021
otavi,3353934,-19.65,17.3333,54.88,31,7,5.06,NA,Sat Jun 26 21:14:21 2021
tuatapere,2180815,-46.1333,167.6833,54.82,84,59,3.65,NZ,Sat Jun 26 21:14:21 2021
samarai,2132606,-10.6167,150.6667,80.87,80,90,9.73,PG,Sat Jun 26 21:14:21 2021
panzhihua,6929460,26.5851,101.7128,84.88,64,100,2.8,CN,Sat Jun 26 21:14:22 2021
paita,3694112,-5.0892,-81.1144,66.43,84,35,10.98,PE,Sat Jun 26 21:14:22 2021
ruteng,1629380,-8.6136,120.4721,70.54,81,92,1.1,ID,Sat Jun 26 21:14:23 2021
orbetello,3171985,42.4408,11.2196,67.23,57,5,4.05,IT,Sat Jun 26 21:14:23 2021
kuusankoski,649919,60.907,26.6244,66.42,99,90,6.91,FI,Sat Jun 26 21:14:23 2021
nacala,1035025,-14.5428,40.6728,68.16,80,4,1.34,MZ,Sat Jun 26 21:14:24 2021
abu dhabi,292968,24.4667,54.3667,96.82,24,0,11.5,AE,Sat Jun 26 21:12:36 2021
faya,110690,18.3851,42.4509,66.72,19,32,7.58,SA,Sat Jun 26 21:14:24 2021
udachnyy,2014624,66.4167,112.4,78.1,38,92,9.71,RU,Sat Jun 26 21:14:24 2021
la ronge,6050066,55.1001,-105.2842,60.78,89,71,8.12,CA,Sat Jun 26 21:14:25 2021
malinovoye ozero,1499779,51.6753,79.7825,64.99,51,100,6.8,RU,Sat Jun 26 21:14:25 2021
bagdarin,2027244,54.4333,113.6,79.05,40,27,4.99,RU,Sat Jun 26 21:12:15 2021
scarborough,2638419,54.2797,-0.4044,56.53,88,100,6.93,GB,Sat Jun 26 21:11:58 2021
ahipara,2194098,-35.1667,173.1667,61.88,92,100,18.45,NZ,Sat Jun 26 21:14:26 2021
qidong,1806840,31.8128,121.6561,80.98,85,100,6.78,CN,Sat Jun 26 21:14:26 2021
vancouver,6173331,49.2497,-123.1193,87.46,55,1,1.01,CA,Sat Jun 26 21:11:34 2021
ulaangom,1515029,49.9811,92.0667,67.73,35,90,11.45,MN,Sat Jun 26 21:10:22 2021
inirida,3671450,3.8653,-67.9239,72,98,85,0.85,CO,Sat Jun 26 21:14:27 2021
coihaique,3894426,-45.5752,-72.0662,30.15,93,0,5.75,CL,Sat Jun 26 21:13:04 2021
ewa beach,5855051,21.3156,-158.0072,80.69,62,1,5.99,US,Sat Jun 26 21:14:28 2021
jibuti,223816,11.5,42.5,87.01,33,76,4.99,DJ,Sat Jun 26 21:12:40 2021
koroni,259265,36.8,21.95,87.08,49,2,8.84,GR,Sat Jun 26 21:14:28 2021
krasnoselkup,1502073,65.7,82.4667,47.37,60,84,14.14,RU,Sat Jun 26 21:14:29 2021
margate,2643044,51.3813,1.3862,61.18,99,100,5.01,GB,Sat Jun 26 21:14:29 2021
yashkino,1486298,55.8736,85.4265,56.35,89,100,7.83,RU,Sat Jun 26 21:14:29 2021
baruun-urt,2032614,46.6806,113.2792,79.97,37,74,3.98,MN,Sat Jun 26 21:14:30 2021
khatra,1266838,22.9833,86.85,89.76,59,64,8.34,IN,Sat Jun 26 21:14:30 2021
sandwick,2638534,60,-1.25,51.62,87,90,12.66,GB,Sat Jun 26 21:14:31 2021
henties bay,3356832,-22.116,14.2845,59.36,73,2,6.4,NA,Sat Jun 26 21:14:31 2021
iqaluit,5983720,63.7506,-68.5145,34.7,80,100,4,CA,Sat Jun 26 21:13:58 2021
mahon,2514301,39.8885,4.2658,64.96,82,0,2.3,ES,Sat Jun 26 21:09:49 2021
aksay,583673,47.26,39.87,74.25,86,48,8.01,RU,Sat Jun 26 21:14:32 2021
talin,588409,59.437,24.7535,63.45,90,75,6.91,EE,Sat Jun 26 21:14:32 2021
swanzey,5093422,42.8698,-72.2818,75.6,91,75,0,US,Sat Jun 26 21:14:32 2021
voh,2137748,-20.9667,164.7,78.21,60,99,5.7,NC,Sat Jun 26 21:14:33 2021
rafaela,3839479,-31.2503,-61.4867,40.98,60,0,1.99,AR,Sat Jun 26 21:14:33 2021
warrington,2634739,53.3925,-2.5802,58.86,89,27,6.91,GB,Sat Jun 26 21:14:33 2021
kurush,538505,41.2841,47.8345,58.89,29,78,5.39,RU,Sat Jun 26 21:14:34 2021
vengerovo,1487615,55.6848,76.7471,64.18,68,100,2.8,RU,Sat Jun 26 21:14:34 2021
medicine hat,6071618,50.0501,-110.6683,71.73,50,16,9.91,CA,Sat Jun 26 21:14:34 2021
yuncheng,1785738,35.0231,110.9928,95.68,29,54,2.46,CN,Sat Jun 26 21:14:35 2021
ninghai,1799384,29.2892,121.4247,86.74,96,100,2.1,CN,Sat Jun 26 21:14:35 2021
surt,2210554,31.2089,16.5887,81.36,41,0,2.1,LY,Sat Jun 26 21:14:36 2021
lappeenranta,648900,61.0587,28.1887,64.45,100,90,3.44,FI,Sat Jun 26 21:10:30 2021
mogadishu,53654,2.0371,45.3438,77.77,83,81,14.85,SO,Sat Jun 26 21:10:09 2021
arzgir,580716,45.3728,44.2206,76.35,64,97,14.99,RU,Sat Jun 26 21:14:36 2021
nuevo ideal,3994607,24.8875,-105.0728,72,30,11,6.73,MX,Sat Jun 26 21:14:37 2021
edson,5946820,53.5835,-116.4356,68.29,71,7,3.44,CA,Sat Jun 26 21:14:37 2021
